{
  "status": "success",
  "message": "Found 233 matching building records.",
  "records": [
    {
      "city": "MELBOURNE",
      "code": "513UNP",
      "description": "7\/11 at Florida Tech",
      "latitude": 28.06,
      "longitude": -80.62,
      "name": "7\/11 at Florida Tech",
      "number": 513,
      "state": "FL",
      "street": "3018 South Babcock Street",
      "zip": "32901",
      "revision": 12988
    },
    {
      "city": "ABERDEEN PROVING",
      "code": "930EXS",
      "description": "Aberdeen - Building 5442",
      "latitude": 39.48,
      "longitude": -76.14,
      "name": "Aberdeen - Building 5442",
      "number": 930,
      "state": "MD",
      "street": "5442 Student Drive Room 9",
      "zip": "21005",
      "revision": 12988
    },
    {
      "city": "ABERDEEN PROVING",
      "code": "967EXS",
      "description": "Aberdeen Proving Ground",
      "latitude": 0,
      "longitude": 0,
      "name": "Aberdeen Proving Ground",
      "number": 967,
      "state": "MD",
      "street": "4305 Susquehanna Avenue Room 213-A",
      "zip": "21005",
      "revision": 12988
    },
    {
      "city": "MELBOURNE",
      "code": "538LAB",
      "description": "Aerospace Laboratories & Machine Shop",
      "latitude": 28.08,
      "longitude": -80.61,
      "name": "Aerospace Laboratories & Machine Shop",
      "number": 538,
      "state": "FL",
      "street": "3127 Psychology Place",
      "zip": "32901",
      "revision": 12988
    },
    {
      "city": "MELBOURNE",
      "code": "990AVI",
      "description": "Airport - Aviation",
      "latitude": 28.1,
      "longitude": -80.63,
      "name": "Airport - Aviation",
      "number": 990,
      "state": "FL",
      "street": "640 Harry Sutton Boulevard",
      "zip": "32901",
      "revision": 12988
    },
    {
      "city": "MELBOURNE",
      "code": "996AVI",
      "description": "Airport-Shed\/Paint Booth",
      "latitude": 28.1,
      "longitude": -80.64,
      "name": "Airport-Shed\/Paint Booth",
      "number": 996,
      "state": "FL",
      "street": "813 Harry Goode Way",
      "zip": "32901",
      "revision": 12988
    },
    {
      "city": "MELBOURNE",
      "code": "610CTR",
      "description": "All Faiths Center",
      "latitude": 28.06,
      "longitude": -80.62,
      "name": "All Faiths Center",
      "number": 610,
      "state": "FL",
      "street": "3216 Engineering Street",
      "zip": "32901",
      "revision": 12988
    },
    {
      "city": "MELBOURNE",
      "code": "546HEN",
      "description": "Allen S. Henry",
      "latitude": 28.06,
      "longitude": -80.62,
      "name": "Allen S. Henry",
      "number": 546,
      "state": "FL",
      "street": "3121 Psychology Place",
      "zip": "32901",
      "revision": 12988
    },
    {
      "city": "MELBOURNE",
      "code": "252ALM",
      "description": "Alumni House",
      "latitude": 28.07,
      "longitude": -80.63,
      "name": "Alumni House",
      "number": 252,
      "state": "FL",
      "street": "2600 South Country Club Road",
      "zip": "32901",
      "revision": 12988
    },
    {
      "city": "MELBOURNE",
      "code": "900RBX",
      "description": "Anchorage  Roberts  Annex",
      "latitude": 28.08,
      "longitude": -80.6,
      "name": "Anchorage  Roberts  Annex",
      "number": 900,
      "state": "FL",
      "street": "1216 East River Drive",
      "zip": "32901",
      "revision": 12988
    },
    {
      "city": "MELBOURNE",
      "code": "906ANC",
      "description": "Anchorage - Crew Storage",
      "latitude": 28.08,
      "longitude": -80.6,
      "name": "Anchorage - Crew Storage",
      "number": 906,
      "state": "FL",
      "street": "1216 East River Drive",
      "zip": "32901",
      "revision": 12988
    },
    {
      "city": "MELBOURNE",
      "code": "903ANC",
      "description": "Anchorage - Crew Training",
      "latitude": 28.08,
      "longitude": -80.6,
      "name": "Anchorage - Crew Training",
      "number": 903,
      "state": "FL",
      "street": "1216 East River Drive",
      "zip": "32901",
      "revision": 12988
    },
    {
      "city": "MELBOURNE",
      "code": "907ANC",
      "description": "Anchorage - Shed",
      "latitude": 28.08,
      "longitude": -80.6,
      "name": "Anchorage - Shed",
      "number": 907,
      "state": "FL",
      "street": "1216 East River Drive",
      "zip": "32901",
      "revision": 12988
    },
    {
      "city": "MELBOURNE",
      "code": "904ANC",
      "description": "Anchorage - Shell Storage",
      "latitude": 28.08,
      "longitude": -80.6,
      "name": "Anchorage - Shell Storage",
      "number": 904,
      "state": "FL",
      "street": "1216 East River Drive",
      "zip": "32901",
      "revision": 12988
    },
    {
      "city": "MELBOURNE",
      "code": "908ANC",
      "description": "Anchorage - Shell Storage",
      "latitude": 28.08,
      "longitude": -80.6,
      "name": "Anchorage - Shell Storage",
      "number": 908,
      "state": "FL",
      "street": "1216 East River Drive",
      "zip": "32901",
      "revision": 12988
    },
    {
      "city": "MELBOURNE",
      "code": "015CVE",
      "description": "Anderson Hall -  Bldg \"E\"",
      "latitude": 28.07,
      "longitude": -80.62,
      "name": "Anderson Hall -  Bldg \"E\"",
      "number": 15,
      "state": "FL",
      "street": "15 Babbling Brook Place",
      "zip": "32901",
      "revision": 12988
    },
    {
      "city": "MELBOURNE",
      "code": "623ATC",
      "description": "Anthony J. Catanese Varsity Training Center",
      "latitude": 28.06,
      "longitude": -80.62,
      "name": "Anthony J. Catanese Varsity Training Center",
      "number": 623,
      "state": "FL",
      "street": "3300 Psychology Place",
      "zip": "32901",
      "revision": 12988
    },
    {
      "city": "SACRAMENTO",
      "code": "916ABC",
      "description": "Applied Behavior Consultants, Inc.",
      "latitude": 0,
      "longitude": 0,
      "name": "Applied Behavior Consultants, Inc.",
      "number": 916,
      "state": "CA",
      "street": "4540 Harlin Avenue",
      "zip": "35826",
      "revision": 12988
    },
    {
      "city": "MELBOURNE",
      "code": "920ARL",
      "description": "Applied Research Laboratory",
      "latitude": 28.09,
      "longitude": -80.63,
      "name": "Applied Research Laboratory",
      "number": 920,
      "state": "FL",
      "street": "328 West Hibiscus Boulevard",
      "zip": "32901",
      "revision": 12988
    },
    {
      "city": "MELBOURNE",
      "code": "921ASH",
      "description": "Applied Research Shed",
      "latitude": 28.09,
      "longitude": -80.63,
      "name": "Applied Research Shed",
      "number": 921,
      "state": "FL",
      "street": "328 West Hibiscus Boulevard",
      "zip": "32901",
      "revision": 12988
    },
    {
      "city": "MELBOURNE",
      "code": "615AQU",
      "description": "Aquaculture Facility",
      "latitude": 28.06,
      "longitude": -80.63,
      "name": "Aquaculture Facility",
      "number": 615,
      "state": "FL",
      "street": "3300 Country Club Road",
      "zip": "32901",
      "revision": 12988
    },
    {
      "city": "MELBOURNE",
      "code": "632SHD",
      "description": "Aquaculture Shed",
      "latitude": 0,
      "longitude": 0,
      "name": "Aquaculture Shed",
      "number": 632,
      "state": "FL",
      "street": "",
      "zip": "",
      "revision": 12988
    },
    {
      "city": "MELBOURNE",
      "code": "251RNT",
      "description": "Athletics Annex",
      "latitude": 28.07,
      "longitude": -80.63,
      "name": "Athletics Annex",
      "number": 251,
      "state": "FL",
      "street": "2508 South Country Club Road",
      "zip": "32901",
      "revision": 12988
    },
    {
      "city": "MELBOURNE",
      "code": "617SHA",
      "description": "Athletics Field Maintenance",
      "latitude": 28.08,
      "longitude": -80.62,
      "name": "Athletics Field Maintenance",
      "number": 617,
      "state": "FL",
      "street": "154 Management Street",
      "zip": "32901",
      "revision": 12988
    },
    {
      "city": "MELBOURNE",
      "code": "620ATH",
      "description": "Athletics Field Storage",
      "latitude": 28.08,
      "longitude": -80.62,
      "name": "Athletics Field Storage",
      "number": 620,
      "state": "FL",
      "street": "180 Management Street",
      "zip": "32901",
      "revision": 12988
    },
    {
      "city": "MELBOURNE",
      "code": "621ATH",
      "description": "Athletics Mower Shed",
      "latitude": 28.08,
      "longitude": -80.62,
      "name": "Athletics Mower Shed",
      "number": 621,
      "state": "FL",
      "street": "152 Management Street",
      "zip": "32901",
      "revision": 12988
    },
    {
      "city": "MELBOURNE",
      "code": "622ATH",
      "description": "Athletics Pump House",
      "latitude": 28.08,
      "longitude": -80.62,
      "name": "Athletics Pump House",
      "number": 622,
      "state": "FL",
      "street": "156 Management Street",
      "zip": "32901",
      "revision": 12988
    },
    {
      "city": "MELBOURNE",
      "code": "386SHD",
      "description": "Athletics Shed",
      "latitude": 0,
      "longitude": 0,
      "name": "Athletics Shed",
      "number": 386,
      "state": "FL",
      "street": "",
      "zip": "32901",
      "revision": 12988
    },
    {
      "city": "",
      "code": "624SHD",
      "description": "Athletics Storage Shed",
      "latitude": 0,
      "longitude": 0,
      "name": "Athletics Storage Shed",
      "number": 624,
      "state": "",
      "street": "",
      "zip": "",
      "revision": 12988
    },
    {
      "city": "ORLANDO",
      "code": "941EXS",
      "description": "Baldwin Park",
      "latitude": 28.57,
      "longitude": -81.33,
      "name": "Baldwin Park",
      "number": 941,
      "state": "FL",
      "street": "2420 Lakemont Avenue Suite 190",
      "zip": "32814",
      "revision": 12988
    },
    {
      "city": "FISHER",
      "code": "919BAC",
      "description": "Behavior Analysis Center for Autism (BACA)",
      "latitude": 0,
      "longitude": 0,
      "name": "Behavior Analysis Center for Autism (BACA)",
      "number": 919,
      "state": "IN",
      "street": "9929 East 126th",
      "zip": "46038",
      "revision": 12988
    },
    {
      "city": "MELBOURNE",
      "code": "426BOT",
      "description": "Botanical Garden Storage",
      "latitude": 28.07,
      "longitude": -80.62,
      "name": "Botanical Garden Storage",
      "number": 426,
      "state": "FL",
      "street": "110 Florida Tech Drive",
      "zip": "32901",
      "revision": 12988
    },
    {
      "city": "MELBOURNE",
      "code": "025CVF",
      "description": "Brown Hall - Bldg \"F\"",
      "latitude": 28.07,
      "longitude": -80.62,
      "name": "Brown Hall - Bldg \"F\"",
      "number": 25,
      "state": "FL",
      "street": "25 Babbling Brook Place",
      "zip": "32901",
      "revision": 12988
    },
    {
      "city": "MELBOURNE",
      "code": "213BRN",
      "description": "Brownlie Hall Dorm",
      "latitude": 28.07,
      "longitude": -80.63,
      "name": "Brownlie Hall Dorm",
      "number": 213,
      "state": "FL",
      "street": "2780 Country Club Road",
      "zip": "32901",
      "revision": 12988
    },
    {
      "city": "MELBOURNE",
      "code": "245POL",
      "description": "Brownlie Pool Buildings",
      "latitude": 28.07,
      "longitude": -80.63,
      "name": "Brownlie Pool Buildings",
      "number": 245,
      "state": "FL",
      "street": "2901 Country Club Road",
      "zip": "32901",
      "revision": 12988
    },
    {
      "city": "MELBOURNE",
      "code": "406QAD",
      "description": "Building 406",
      "latitude": 28.07,
      "longitude": -80.62,
      "name": "Building 406",
      "number": 406,
      "state": "FL",
      "street": "148 Aeronautics Street",
      "zip": "32901",
      "revision": 12988
    },
    {
      "city": "MELBOURNE",
      "code": "407QAD",
      "description": "Building 407",
      "latitude": 28.07,
      "longitude": -80.62,
      "name": "Building 407",
      "number": 407,
      "state": "FL",
      "street": "138 Aeronautics Street",
      "zip": "32901",
      "revision": 12988
    },
    {
      "city": "HOLOPAW",
      "code": "980BCO",
      "description": "BullCreek Observatory",
      "latitude": 0,
      "longitude": 0,
      "name": "BullCreek Observatory",
      "number": 980,
      "state": "FL",
      "street": "7526 Crabgrass - Sreet C",
      "zip": "34739",
      "revision": 12988
    },
    {
      "city": "MELBOURNE",
      "code": "116CBL",
      "description": "Campbell Hall Dorm",
      "latitude": 28.07,
      "longitude": -80.62,
      "name": "Campbell Hall Dorm",
      "number": 116,
      "state": "FL",
      "street": "2725 Country Club Road",
      "zip": "32901",
      "revision": 12988
    },
    {
      "city": "MELBOURNE",
      "code": "910CAI",
      "description": "Center for Aeronautics & Innovation",
      "latitude": 28.09,
      "longitude": -80.64,
      "name": "Center for Aeronautics & Innovation",
      "number": 910,
      "state": "FL",
      "street": "1050 W. Nasa Boulevard",
      "zip": "32901",
      "revision": 12988
    },
    {
      "city": "IRVINE",
      "code": "918CBS",
      "description": "Center for Behavioral Sciences, Inc. (CBS)",
      "latitude": 0,
      "longitude": 0,
      "name": "Center for Behavioral Sciences, Inc. (CBS)",
      "number": 918,
      "state": "CA",
      "street": "17911 Skypark Circle, Suite 26-E",
      "zip": "92614",
      "revision": 12988
    },
    {
      "city": "MELBOURNE",
      "code": "965CBC",
      "description": "Central Baptist Church",
      "latitude": 28.07,
      "longitude": -80.62,
      "name": "Central Baptist Church",
      "number": 965,
      "state": "FL",
      "street": "2503 Country Club Road",
      "zip": "32901",
      "revision": 12988
    },
    {
      "city": "MELBOURNE",
      "code": "925MDC",
      "description": "Central FL Memory Clinic",
      "latitude": 28.05,
      "longitude": -80.62,
      "name": "Central FL Memory Clinic",
      "number": 925,
      "state": "FL",
      "street": "3661 Babcock Street",
      "zip": "32901",
      "revision": 12988
    },
    {
      "city": "MELBOURNE",
      "code": "430CPN",
      "description": "Central Plant - North",
      "latitude": 0,
      "longitude": 0,
      "name": "Central Plant - North",
      "number": 430,
      "state": "FL",
      "street": "2930 Science Circle",
      "zip": "32901",
      "revision": 12988
    },
    {
      "city": "MELBOURNE",
      "code": "510CLE",
      "description": "Charles and Ruth Clemente Center",
      "latitude": 28.06,
      "longitude": -80.62,
      "name": "Charles and Ruth Clemente Center",
      "number": 510,
      "state": "FL",
      "street": "3011 Panther Place",
      "zip": "32901",
      "revision": 12988
    },
    {
      "city": "MELBOURNE",
      "code": "040CVA",
      "description": "Chawla Hall - Bldg \"A\"",
      "latitude": 28.07,
      "longitude": -80.62,
      "name": "Chawla Hall - Bldg \"A\"",
      "number": 40,
      "state": "FL",
      "street": "40 Babbling Brook Place",
      "zip": "32901",
      "revision": 12988
    },
    {
      "city": "MELBOURNE",
      "code": "060CVG",
      "description": "Clark Hall - Bldg \"G\"",
      "latitude": 28.07,
      "longitude": -80.62,
      "name": "Clark Hall - Bldg \"G\"",
      "number": 60,
      "state": "FL",
      "street": "60 Babbling Brook Place",
      "zip": "32901",
      "revision": 12988
    },
    {
      "city": "MELBOURNE",
      "code": "402QAD",
      "description": "Classroom 402",
      "latitude": 28.07,
      "longitude": -80.62,
      "name": "Classroom 402",
      "number": 402,
      "state": "FL",
      "street": "159 Florida Tech Drive",
      "zip": "32901",
      "revision": 12988
    },
    {
      "city": "MELBOURNE",
      "code": "403QAD",
      "description": "Classroom 403",
      "latitude": 28.07,
      "longitude": -80.62,
      "name": "Classroom 403",
      "number": 403,
      "state": "FL",
      "street": "149 Florida Tech Drive",
      "zip": "32901",
      "revision": 12988
    },
    {
      "city": "MELBOURNE",
      "code": "050CVH",
      "description": "Columbia Village Bldg \"H\"",
      "latitude": 28.07,
      "longitude": -80.62,
      "name": "Columbia Village Bldg \"H\"",
      "number": 50,
      "state": "FL",
      "street": "50 Babbling Brook Place",
      "zip": "32901",
      "revision": 12988
    },
    {
      "city": "MELBOURNE",
      "code": "000ZON",
      "description": "Columbia Village Complex",
      "latitude": 0,
      "longitude": 0,
      "name": "Columbia Village Complex",
      "number": 0,
      "state": "FL",
      "street": "",
      "zip": "32901",
      "revision": 12988
    },
    {
      "city": "MELBOURNE",
      "code": "120PRK",
      "description": "Columbia Village Parking Garage",
      "latitude": 28.07,
      "longitude": -80.62,
      "name": "Columbia Village Parking Garage",
      "number": 120,
      "state": "FL",
      "street": "2746 Country Club Road",
      "zip": "32901",
      "revision": 12988
    },
    {
      "city": "OCEANSIDE",
      "code": "911CAC",
      "description": "Comprehensive Autism Center",
      "latitude": 0,
      "longitude": 0,
      "name": "Comprehensive Autism Center",
      "number": 911,
      "state": "CA",
      "street": "3355 Mission Avenue, Suite 221",
      "zip": "90258",
      "revision": 12988
    },
    {
      "city": "MELBOURNE",
      "code": "264CSD",
      "description": "Counseling and Psychological",
      "latitude": 28.06,
      "longitude": -80.63,
      "name": "Counseling and Psychological",
      "number": 264,
      "state": "FL",
      "street": "220 West University Boulevard",
      "zip": "32901",
      "revision": 12988
    },
    {
      "city": "",
      "code": "800ZON",
      "description": "Currently Unused",
      "latitude": 0,
      "longitude": 0,
      "name": "Currently Unused",
      "number": 800,
      "state": "FL",
      "street": "",
      "zip": "",
      "revision": 12988
    },
    {
      "city": "MELBOURNE",
      "code": "405QAD",
      "description": "Dan Dahle Building",
      "latitude": 28.07,
      "longitude": -80.62,
      "name": "Dan Dahle Building",
      "number": 405,
      "state": "FL",
      "street": "158 Aeronautics Street",
      "zip": "32901",
      "revision": 12988
    },
    {
      "city": "MELBOURNE",
      "code": "626DBA",
      "description": "Dugout Baseball Away",
      "latitude": 28.06,
      "longitude": -80.62,
      "name": "Dugout Baseball Away",
      "number": 626,
      "state": "FL",
      "street": "150 W. University Boulevard",
      "zip": "32901",
      "revision": 12988
    },
    {
      "city": "MELBOURNE",
      "code": "625DBH",
      "description": "Dugout Baseball Home",
      "latitude": 28.06,
      "longitude": -80.62,
      "name": "Dugout Baseball Home",
      "number": 625,
      "state": "FL",
      "street": "150 W. University Boulevard",
      "zip": "32901",
      "revision": 12988
    },
    {
      "city": "MELBOURNE",
      "code": "628DSA",
      "description": "Dugout Softball Away",
      "latitude": 28.06,
      "longitude": -80.62,
      "name": "Dugout Softball Away",
      "number": 628,
      "state": "FL",
      "street": "150 W. University Boulevard",
      "zip": "32901",
      "revision": 12988
    },
    {
      "city": "MELBOURNE",
      "code": "627DSH",
      "description": "Dugout Softball Home",
      "latitude": 28.06,
      "longitude": -80.62,
      "name": "Dugout Softball Home",
      "number": 627,
      "state": "FL",
      "street": "150 W. University Boulevard",
      "zip": "32901",
      "revision": 12988
    },
    {
      "city": "MELBOURNE",
      "code": "249RNT",
      "description": "Edgewood House",
      "latitude": 28.07,
      "longitude": -80.62,
      "name": "Edgewood House",
      "number": 249,
      "state": "FL",
      "street": "2415 South Country Club Road",
      "zip": "32901",
      "revision": 12988
    },
    {
      "city": "MELBOURNE",
      "code": "424LNK",
      "description": "Edwin A. Link Building",
      "latitude": 28.07,
      "longitude": -80.62,
      "name": "Edwin A. Link Building",
      "number": 424,
      "state": "FL",
      "street": "2930 Science Circle",
      "zip": "32901",
      "revision": 12988
    },
    {
      "city": "EGLIN AFB",
      "code": "926EXS",
      "description": "Eglin Air Force Base Building 251",
      "latitude": 30.48,
      "longitude": -86.51,
      "name": "Eglin Air Force Base Building 251",
      "number": 926,
      "state": "FL",
      "street": "502 West D Avenue, Building 251, Room 108",
      "zip": "32542",
      "revision": 12988
    },
    {
      "city": "MELBOURNE",
      "code": "504OEP",
      "description": "Engineering Pump House",
      "latitude": 28.08,
      "longitude": -80.61,
      "name": "Engineering Pump House",
      "number": 504,
      "state": "FL",
      "street": "3018 Engineering Street",
      "zip": "32901",
      "revision": 12988
    },
    {
      "city": "MELBOURNE",
      "code": "536SHA",
      "description": "Engineering Shed A",
      "latitude": 28.08,
      "longitude": -80.61,
      "name": "Engineering Shed A",
      "number": 536,
      "state": "FL",
      "street": "3125 Psychology Place",
      "zip": "32901",
      "revision": 12988
    },
    {
      "city": "MELBOURNE",
      "code": "537SHB",
      "description": "Engineering Shed B",
      "latitude": 28.08,
      "longitude": -80.61,
      "name": "Engineering Shed B",
      "number": 537,
      "state": "FL",
      "street": "3129 Psychology Place",
      "zip": "32901",
      "revision": 12988
    },
    {
      "city": "MELBOURNE",
      "code": "110ECG",
      "description": "Ethos Community Garden - Pergola",
      "latitude": 0,
      "longitude": 0,
      "name": "Ethos Community Garden - Pergola",
      "number": 110,
      "state": "FL",
      "street": "2745 Country Club Road",
      "zip": "",
      "revision": 12988
    },
    {
      "city": "MELBOURNE",
      "code": "119EVH",
      "description": "Evans Hall Dorm",
      "latitude": 28.07,
      "longitude": -80.62,
      "name": "Evans Hall Dorm",
      "number": 119,
      "state": "FL",
      "street": "2745 Country Club Road",
      "zip": "32901",
      "revision": 12988
    },
    {
      "city": "MELBOURNE",
      "code": "428EVL",
      "description": "Evans Library",
      "latitude": 28.07,
      "longitude": -80.62,
      "name": "Evans Library",
      "number": 428,
      "state": "FL",
      "street": "2949 Science Circle",
      "zip": "32901",
      "revision": 12988
    },
    {
      "city": "MELBOURNE",
      "code": "501OEC",
      "description": "F.W. Olin Engineering Complex",
      "latitude": 28.06,
      "longitude": -80.62,
      "name": "F.W. Olin Engineering Complex",
      "number": 501,
      "state": "FL",
      "street": "3012 Engineering Street",
      "zip": "32901",
      "revision": 12988
    },
    {
      "city": "MELBOURNE",
      "code": "500OLS",
      "description": "F.W. Olin Life Sciences",
      "latitude": 28.06,
      "longitude": -80.62,
      "name": "F.W. Olin Life Sciences",
      "number": 500,
      "state": "FL",
      "street": "3022 Engineering Street",
      "zip": "32901",
      "revision": 12988
    },
    {
      "city": "MELBOURNE",
      "code": "502OPS",
      "description": "F.W. Olin Physical Sciences",
      "latitude": 28.06,
      "longitude": -80.62,
      "name": "F.W. Olin Physical Sciences",
      "number": 502,
      "state": "FL",
      "street": "3114 Engineering Street",
      "zip": "32901",
      "revision": 12988
    },
    {
      "city": "MELBOURNE",
      "code": "616GND",
      "description": "Facilities Ground Office",
      "latitude": 0,
      "longitude": 0,
      "name": "Facilities Ground Office",
      "number": 616,
      "state": "FL",
      "street": "3217 Psychology Place",
      "zip": "32901",
      "revision": 12988
    },
    {
      "city": "MELBOURNE",
      "code": "614GRO",
      "description": "Facilities Ground Storage",
      "latitude": 28.06,
      "longitude": -80.63,
      "name": "Facilities Ground Storage",
      "number": 614,
      "state": "FL",
      "street": "3288 Country Club Road",
      "zip": "32901",
      "revision": 12988
    },
    {
      "city": "MELBOURNE",
      "code": "613GAT",
      "description": "Facilities Grounds Storage",
      "latitude": 28.06,
      "longitude": -80.63,
      "name": "Facilities Grounds Storage",
      "number": 613,
      "state": "FL",
      "street": "3296 Psychology Place",
      "zip": "32901",
      "revision": 12988
    },
    {
      "city": "DENVER",
      "code": "003FFA",
      "description": "Firefly Autism",
      "latitude": 0,
      "longitude": 0,
      "name": "Firefly Autism",
      "number": 3,
      "state": "CO",
      "street": "2695 South Jersey Street",
      "zip": "80222",
      "revision": 12988
    },
    {
      "city": "MELBOURNE",
      "code": "612FAC",
      "description": "Fleet Management",
      "latitude": 28.06,
      "longitude": -80.63,
      "name": "Fleet Management",
      "number": 612,
      "state": "FL",
      "street": "3292 Psychology Place",
      "zip": "32901",
      "revision": 12988
    },
    {
      "city": "MELBOURNE",
      "code": "618SHD",
      "description": "Fleet Management Shop",
      "latitude": 28.06,
      "longitude": -80.63,
      "name": "Fleet Management Shop",
      "number": 618,
      "state": "FL",
      "street": "3286 Psychology Place",
      "zip": "32901",
      "revision": 12988
    },
    {
      "city": "MELBOURNE",
      "code": "629CON",
      "description": "Florida Tech Concession Building",
      "latitude": 28.06,
      "longitude": -80.62,
      "name": "Florida Tech Concession Building",
      "number": 629,
      "state": "FL",
      "street": "3343 Psychology Place",
      "zip": "32901",
      "revision": 12988
    },
    {
      "city": "MELBOURNE",
      "code": "998MIA",
      "description": "Florida Tech Research Park",
      "latitude": 28.1,
      "longitude": -80.63,
      "name": "Florida Tech Research Park",
      "number": 998,
      "state": "FL",
      "street": "One Air Terminal Parkway",
      "zip": "32952",
      "revision": 12988
    },
    {
      "city": "MELBOURNE",
      "code": "974FAM",
      "description": "Foosaner Art Museum",
      "latitude": 28.13,
      "longitude": -80.63,
      "name": "Foosaner Art Museum",
      "number": 974,
      "state": "FL",
      "street": "1463 Highland Avenue",
      "zip": "32935",
      "revision": 12988
    },
    {
      "city": "MELBOURNE",
      "code": "976FAM",
      "description": "Foosaner Education Center",
      "latitude": 28.13,
      "longitude": -80.63,
      "name": "Foosaner Education Center",
      "number": 976,
      "state": "FL",
      "street": "1520 Highland Avenue",
      "zip": "32935",
      "revision": 12988
    },
    {
      "city": "FORT LEE",
      "code": "931EXS",
      "description": "Fort Lee - Building 12500",
      "latitude": 37.22,
      "longitude": -77.35,
      "name": "Fort Lee - Building 12500",
      "number": 931,
      "state": "VA",
      "street": "2401 Quarters Road, Building 12500",
      "zip": "23801-1705",
      "revision": 12988
    },
    {
      "city": "MELBOURNE",
      "code": "420CRF",
      "description": "Frederick C. Crawford Bldg",
      "latitude": 28.06,
      "longitude": -80.62,
      "name": "Frederick C. Crawford Bldg",
      "number": 420,
      "state": "FL",
      "street": "140 West University Boulevard",
      "zip": "32901",
      "revision": 12988
    },
    {
      "city": "MELBOURNE",
      "code": "427FRU",
      "description": "Frueauff Energy Research",
      "latitude": 28.07,
      "longitude": -80.62,
      "name": "Frueauff Energy Research",
      "number": 427,
      "state": "FL",
      "street": "2900 South Babcock Street",
      "zip": "32901",
      "revision": 12988
    },
    {
      "city": "MELBOURNE",
      "code": "541GAZ",
      "description": "Gazebo",
      "latitude": 28.06,
      "longitude": -80.62,
      "name": "Gazebo",
      "number": 541,
      "state": "FL",
      "street": "3131 Psychology Place",
      "zip": "32901",
      "revision": 12988
    },
    {
      "city": "MELBOURNE",
      "code": "543GAZ",
      "description": "Gazebo",
      "latitude": 0,
      "longitude": 0,
      "name": "Gazebo",
      "number": 543,
      "state": "FL",
      "street": "3130 Panther Place",
      "zip": "",
      "revision": 12988
    },
    {
      "city": "MELBOURNE",
      "code": "460SKU",
      "description": "George M. Skurla Hall",
      "latitude": 28.06,
      "longitude": -80.62,
      "name": "George M. Skurla Hall",
      "number": 460,
      "state": "FL",
      "street": "180 West University Boulevard",
      "zip": "32901",
      "revision": 12988
    },
    {
      "city": "MELBOURNE",
      "code": "410GLE",
      "description": "Gleason Performing Arts Center",
      "latitude": 28.06,
      "longitude": -80.62,
      "name": "Gleason Performing Arts Center",
      "number": 410,
      "state": "FL",
      "street": "2940 \/ 2950  Science Circle",
      "zip": "32901",
      "revision": 12988
    },
    {
      "city": "MELBOURNE",
      "code": "115GRS",
      "description": "Grissom Hall Dorm",
      "latitude": 28.07,
      "longitude": -80.62,
      "name": "Grissom Hall Dorm",
      "number": 115,
      "state": "FL",
      "street": "2765 Country Club Road",
      "zip": "32901",
      "revision": 12988
    },
    {
      "city": "MELBOURNE",
      "code": "611GCS",
      "description": "Grounds Cart Storage",
      "latitude": 28.06,
      "longitude": -80.63,
      "name": "Grounds Cart Storage",
      "number": 611,
      "state": "FL",
      "street": "3284 Country Club Road",
      "zip": "32901",
      "revision": 12988
    },
    {
      "city": "MELBOURNE",
      "code": "961GRU",
      "description": "Grumman",
      "latitude": 28.1,
      "longitude": -80.65,
      "name": "Grumman",
      "number": 961,
      "state": "FL",
      "street": "2000 Nasa Boulevard",
      "zip": "32904",
      "revision": 12988
    },
    {
      "city": "FORT EUSTIS",
      "code": "935EXS",
      "description": "Hampton Roads - Bldg 3016 rm253",
      "latitude": 0,
      "longitude": 0,
      "name": "Hampton Roads - Bldg 3016 rm253",
      "number": 935,
      "state": "VA",
      "street": "Little Creek Fort Eustis Air Force Base, POB 4323",
      "zip": "23604-0323",
      "revision": 12988
    },
    {
      "city": "FORT EUSTIS",
      "code": "932EXS",
      "description": "Hampton Roads - Bldg 82 rm248",
      "latitude": 37.13,
      "longitude": -76.61,
      "name": "Hampton Roads - Bldg 82 rm248",
      "number": 932,
      "state": "VA",
      "street": "Fort Eustis AFB, P.O. Box 4323",
      "zip": "23604-0323",
      "revision": 12988
    },
    {
      "city": "FORT EUSTIS",
      "code": "933EXS",
      "description": "Hampton Roads - Bldg 99 rm141",
      "latitude": 0,
      "longitude": 0,
      "name": "Hampton Roads - Bldg 99 rm141",
      "number": 933,
      "state": "VA",
      "street": "Dam Neck Fort Eustis Air Force Base, POB 4323",
      "zip": "23604-0323",
      "revision": 12988
    },
    {
      "city": "NORFOLK",
      "code": "936EXS",
      "description": "Hampton Roads - Bldg CEP87 rm209",
      "latitude": 0,
      "longitude": 0,
      "name": "Hampton Roads - Bldg CEP87 rm209",
      "number": 936,
      "state": "VA",
      "street": "Norfolk Naval Station, POB 4323",
      "zip": "23511",
      "revision": 12988
    },
    {
      "city": "FORT EUSTIS",
      "code": "934EXS",
      "description": "Hampton Roads - Building 1500",
      "latitude": 37.15,
      "longitude": -76.57,
      "name": "Hampton Roads - Building 1500",
      "number": 934,
      "state": "VA",
      "street": "Army Education Center, Bldg. 1500, Madison Avenue",
      "zip": "23604-0323",
      "revision": 12988
    },
    {
      "city": "FORT PIERCE",
      "code": "963HAB",
      "description": "Harbor Branch",
      "latitude": 27.54,
      "longitude": -80.36,
      "name": "Harbor Branch",
      "number": 963,
      "state": "FL",
      "street": "5600 North US1",
      "zip": "34946",
      "revision": 12988
    },
    {
      "city": "MELBOURNE",
      "code": "962HAR",
      "description": "Harris",
      "latitude": 28.09,
      "longitude": -80.64,
      "name": "Harris",
      "number": 962,
      "state": "FL",
      "street": "1025 West Nasa Boulevard",
      "zip": "32901",
      "revision": 12988
    },
    {
      "city": "MELBOURNE",
      "code": "504LSA",
      "description": "Harris Center For Science and Engineering",
      "latitude": 28.06,
      "longitude": -80.62,
      "name": "Harris Center For Science and Engineering",
      "number": 504,
      "state": "FL",
      "street": "3134 Psychology Place",
      "zip": "32901",
      "revision": 12988
    },
    {
      "city": "MELBOURNE",
      "code": "710FTC",
      "description": "Harris Commons",
      "latitude": 28.06,
      "longitude": -80.62,
      "name": "Harris Commons",
      "number": 710,
      "state": "FL",
      "street": "3011 South Babcock Street",
      "zip": "32901",
      "revision": 12988
    },
    {
      "city": "MELBOURNE",
      "code": "975FAM",
      "description": "Harris Pavilion",
      "latitude": 28.13,
      "longitude": -80.63,
      "name": "Harris Pavilion",
      "number": 975,
      "state": "FL",
      "street": "1463 Highland Avenue",
      "zip": "32935",
      "revision": 12988
    },
    {
      "city": "MELBOURNE",
      "code": "548SDC",
      "description": "Harris Student Design Center",
      "latitude": 28.06,
      "longitude": -80.62,
      "name": "Harris Student Design Center",
      "number": 548,
      "state": "FL",
      "street": "3217 Psychology Place",
      "zip": "32901",
      "revision": 12988
    },
    {
      "city": "MELBOURNE",
      "code": "652SVC",
      "description": "Harris Village - Bldg \"C\"",
      "latitude": 28.07,
      "longitude": -80.67,
      "name": "Harris Village - Bldg \"C\"",
      "number": 652,
      "state": "FL",
      "street": "3326 Engineering Street",
      "zip": "32901",
      "revision": 12988
    },
    {
      "city": "MELBOURNE",
      "code": "648SCB",
      "description": "Harris Village - Chiller Bldg",
      "latitude": 28.06,
      "longitude": -80.62,
      "name": "Harris Village - Chiller Bldg",
      "number": 648,
      "state": "FL",
      "street": "3305 Engineering Street",
      "zip": "32901",
      "revision": 12988
    },
    {
      "city": "MELBOURNE",
      "code": "651SVB",
      "description": "Harris Village - Farmer Hall",
      "latitude": 28.07,
      "longitude": -80.67,
      "name": "Harris Village - Farmer Hall",
      "number": 651,
      "state": "FL",
      "street": "3316 Engineering Street",
      "zip": "32901",
      "revision": 12988
    },
    {
      "city": "MELBOURNE",
      "code": "650SVA",
      "description": "Harris Village - Hartley Hall",
      "latitude": 28.07,
      "longitude": -80.67,
      "name": "Harris Village - Hartley Hall",
      "number": 650,
      "state": "FL",
      "street": "3306 Engineering Street",
      "zip": "32901",
      "revision": 12988
    },
    {
      "city": "MELBOURNE",
      "code": "649SMK",
      "description": "Harris Village - Mail Kiosk",
      "latitude": 28.06,
      "longitude": -80.62,
      "name": "Harris Village - Mail Kiosk",
      "number": 649,
      "state": "FL",
      "street": "3300 Engineering Street",
      "zip": "32901",
      "revision": 12988
    },
    {
      "city": "MELBOURNE",
      "code": "609HAZ",
      "description": "Hazardous Waste Shed",
      "latitude": 28.06,
      "longitude": -80.63,
      "name": "Hazardous Waste Shed",
      "number": 609,
      "state": "FL",
      "street": "3292 Psychology Place",
      "zip": "32901",
      "revision": 12988
    },
    {
      "city": "MELBOURNE",
      "code": "924HIB",
      "description": "Hibiscus Center",
      "latitude": 0,
      "longitude": 0,
      "name": "Hibiscus Center",
      "number": 924,
      "state": "FL",
      "street": "",
      "zip": "32901",
      "revision": 12988
    },
    {
      "city": "MELBOURNE",
      "code": "425SCH",
      "description": "Historic School House",
      "latitude": 28.07,
      "longitude": -80.62,
      "name": "Historic School House",
      "number": 425,
      "state": "FL",
      "street": "140 Florida Tech Drive",
      "zip": "32901",
      "revision": 12988
    },
    {
      "city": "MELBOURNE",
      "code": "412DEN",
      "description": "Homer R. Denius Student Center",
      "latitude": 28.07,
      "longitude": -80.62,
      "name": "Homer R. Denius Student Center",
      "number": 412,
      "state": "FL",
      "street": "144 Florida Tech Drive",
      "zip": "32901",
      "revision": 12988
    },
    {
      "city": "WOODRUFF",
      "code": "940HPR",
      "description": "Hope Reach",
      "latitude": 34.74,
      "longitude": -82.02,
      "name": "Hope Reach",
      "number": 940,
      "state": "SC",
      "street": "751 East Georgia Road",
      "zip": "29388",
      "revision": 12988
    },
    {
      "city": "MELBOURNE",
      "code": "265MTH",
      "description": "House - 2915 Vassar Street",
      "latitude": 28.06,
      "longitude": -80.63,
      "name": "House - 2915 Vassar Street",
      "number": 265,
      "state": "FL",
      "street": "2915 Vassar Street",
      "zip": "32901",
      "revision": 12988
    },
    {
      "city": "MELBOURNE",
      "code": "259RNT",
      "description": "House - 3004 Country Club Road",
      "latitude": 28.06,
      "longitude": -80.63,
      "name": "House - 3004 Country Club Road",
      "number": 259,
      "state": "FL",
      "street": "3004 Country Club Road",
      "zip": "32901",
      "revision": 12988
    },
    {
      "city": "MELBOURNE",
      "code": "260RNT",
      "description": "House - 3100 Country Club Road",
      "latitude": 28.06,
      "longitude": -80.63,
      "name": "House - 3100 Country Club Road",
      "number": 260,
      "state": "FL",
      "street": "3100 Country Club Road",
      "zip": "32901",
      "revision": 12988
    },
    {
      "city": "MELBOURNE",
      "code": "269RNT",
      "description": "House - 3110 Country Club Rd",
      "latitude": 28.06,
      "longitude": -80.63,
      "name": "House - 3110 Country Club Rd",
      "number": 269,
      "state": "FL",
      "street": "3110 Country Club Road",
      "zip": "32901",
      "revision": 12988
    },
    {
      "city": "MELBOURNE",
      "code": "273RNT",
      "description": "House - 3204 Country Club Rd",
      "latitude": 28.06,
      "longitude": -80.63,
      "name": "House - 3204 Country Club Rd",
      "number": 273,
      "state": "FL",
      "street": "3204 Country Club Road",
      "zip": "32901",
      "revision": 12988
    },
    {
      "city": "MELBOURNE",
      "code": "045CVB",
      "description": "Husband Hall - Bldg \"B\"",
      "latitude": 28.07,
      "longitude": -80.62,
      "name": "Husband Hall - Bldg \"B\"",
      "number": 45,
      "state": "FL",
      "street": "30 Babbling Brook Place",
      "zip": "32901",
      "revision": 12988
    },
    {
      "city": "MELBOURNE",
      "code": "411KUP",
      "description": "Jerome P. Keuper Administration Building",
      "latitude": 28.07,
      "longitude": -80.62,
      "name": "Jerome P. Keuper Administration Building",
      "number": 411,
      "state": "FL",
      "street": "174 Florida Tech Drive",
      "zip": "32901",
      "revision": 12988
    },
    {
      "city": "MELBOURNE",
      "code": "401QAD",
      "description": "John E. Miller Office Bldg",
      "latitude": 28.07,
      "longitude": -80.62,
      "name": "John E. Miller Office Bldg",
      "number": 401,
      "state": "FL",
      "street": "169 Florida Tech Drive",
      "zip": "32901",
      "revision": 12988
    },
    {
      "city": "ROCKLEDGE",
      "code": "929JLC",
      "description": "Johnson Law Center",
      "latitude": 28.34,
      "longitude": -80.73,
      "name": "Johnson Law Center",
      "number": 929,
      "state": "FL",
      "street": "1290 Federal Highway 1st Floor",
      "zip": "32955",
      "revision": 12988
    },
    {
      "city": "TUCSON",
      "code": "940KPO",
      "description": "Kitt Peak Observatory",
      "latitude": 0,
      "longitude": 0,
      "name": "Kitt Peak Observatory",
      "number": 940,
      "state": "FL",
      "street": "Tohono O'Odham Reservation",
      "zip": "85719",
      "revision": 12988
    },
    {
      "city": "ORLANDO",
      "code": "980EXS",
      "description": "Lake Nona",
      "latitude": 0,
      "longitude": 0,
      "name": "Lake Nona",
      "number": 980,
      "state": "FL",
      "street": "12350 Narcoossee Road, Answer Center, Room 1-149",
      "zip": "32832",
      "revision": 12988
    },
    {
      "city": "MELBOURNE",
      "code": "942WHS",
      "description": "Leased Warehouse",
      "latitude": 0,
      "longitude": 0,
      "name": "Leased Warehouse",
      "number": 942,
      "state": "FL",
      "street": "282 North Wickham Road",
      "zip": "32904",
      "revision": 12988
    },
    {
      "city": "MELBOURNE",
      "code": "750MSS",
      "description": "Mary Star of the Sea Newman Hall",
      "latitude": 28.06,
      "longitude": -80.62,
      "name": "Mary Star of the Sea Newman Hall",
      "number": 750,
      "state": "FL",
      "street": "3311 South Babcock Street",
      "zip": "32901",
      "revision": 12988
    },
    {
      "city": "MELBOURNE",
      "code": "506SHD",
      "description": "Material Storage Shed",
      "latitude": 0,
      "longitude": 0,
      "name": "Material Storage Shed",
      "number": 506,
      "state": "FL",
      "street": "3029 Country Club Road",
      "zip": "32901",
      "revision": 12988
    },
    {
      "city": "MELBOURNE",
      "code": "010CVD",
      "description": "McCool Hall - Bldg \"D\"",
      "latitude": 28.07,
      "longitude": -80.62,
      "name": "McCool Hall - Bldg \"D\"",
      "number": 10,
      "state": "FL",
      "street": "10 Babbling Brook Place",
      "zip": "32901",
      "revision": 12988
    },
    {
      "city": "MELBOURNE",
      "code": "404QAD",
      "description": "Microelectronics Lab",
      "latitude": 28.07,
      "longitude": -80.62,
      "name": "Microelectronics Lab",
      "number": 404,
      "state": "FL",
      "street": "139 Florida Tech Drive",
      "zip": "32901",
      "revision": 12988
    },
    {
      "city": "MELBOURNE",
      "code": "540MIL",
      "description": "Military Sciences\/Facilities Ops\/Shipping",
      "latitude": 28.06,
      "longitude": -80.62,
      "name": "Military Sciences\/Facilities Ops\/Shipping",
      "number": 540,
      "state": "FL",
      "street": "3123 Psychology Place",
      "zip": "32901",
      "revision": 12988
    },
    {
      "city": "MELBOURNE",
      "code": "514MBL",
      "description": "Mobile Gas Station",
      "latitude": 28.06,
      "longitude": -80.62,
      "name": "Mobile Gas Station",
      "number": 514,
      "state": "FL",
      "street": "3000 South Babcock Street",
      "zip": "32901",
      "revision": 12988
    },
    {
      "city": "MELBOURNE",
      "code": "255RNT",
      "description": "Music House",
      "latitude": 28.06,
      "longitude": -80.63,
      "name": "Music House",
      "number": 255,
      "state": "FL",
      "street": "3000 Country Club Road",
      "zip": "32901",
      "revision": 12988
    },
    {
      "city": "MELBOURNE",
      "code": "267RNT",
      "description": "Music Program Studios",
      "latitude": 28.06,
      "longitude": -80.63,
      "name": "Music Program Studios",
      "number": 267,
      "state": "FL",
      "street": "240 West University Boulevard",
      "zip": "32901",
      "revision": 12988
    },
    {
      "city": "MELBOURNE",
      "code": "927BBO",
      "description": "Nathan M. Bisk College of Business",
      "latitude": 28.08,
      "longitude": -80.62,
      "name": "Nathan M. Bisk College of Business",
      "number": 927,
      "state": "FL",
      "street": "2202 South Babcock Street",
      "zip": "32901",
      "revision": 12988
    },
    {
      "city": "QUANTICO",
      "code": "938EXS",
      "description": "National Capital Quantico",
      "latitude": 38.53,
      "longitude": -77.29,
      "name": "National Capital Quantico",
      "number": 938,
      "state": "VA",
      "street": "22 Lester Street",
      "zip": "22134",
      "revision": 12988
    },
    {
      "city": "ALEXANDRIA",
      "code": "937EXS",
      "description": "National Capital Region",
      "latitude": 38.8,
      "longitude": -77.12,
      "name": "National Capital Region",
      "number": 937,
      "state": "VA",
      "street": "4875 Eisenhower Avenue, Suite 200",
      "zip": "22304-7330",
      "revision": 12988
    },
    {
      "city": "QUANTICO",
      "code": "968EXS",
      "description": "National Capital Region (NCR)",
      "latitude": 0,
      "longitude": 0,
      "name": "National Capital Region (NCR)",
      "number": 968,
      "state": "VA",
      "street": "Life-Long Learning Center, 3089 Roan Street",
      "zip": "22134",
      "revision": 12988
    },
    {
      "city": "LAKEHURST",
      "code": "944EXS",
      "description": "NE Lakehurst Naval Air-Building 123",
      "latitude": 0,
      "longitude": 0,
      "name": "NE Lakehurst Naval Air-Building 123",
      "number": 944,
      "state": "NJ",
      "street": "NAWCAD Lakehurst Building 123 Room 112 Highway 547",
      "zip": "08733-9998",
      "revision": 12988
    },
    {
      "city": "DOVER",
      "code": "943EXS",
      "description": "NE Picatinny-Building 3409",
      "latitude": 0,
      "longitude": 0,
      "name": "NE Picatinny-Building 3409",
      "number": 943,
      "state": "NJ",
      "street": "Building 3409 (ARDEC) Picatinny Arsenal",
      "zip": "07806-5000",
      "revision": 12988
    },
    {
      "city": "MELBOURNE",
      "code": "430BRG",
      "description": "North Covered Bridge",
      "latitude": 28.07,
      "longitude": -80.62,
      "name": "North Covered Bridge",
      "number": 430,
      "state": "FL",
      "street": "129 Florida Tech Drive",
      "zip": "32901",
      "revision": 12988
    },
    {
      "city": "MELBOURNE",
      "code": "266HLZ",
      "description": "O.A. Holzer Student Health Center",
      "latitude": 28.06,
      "longitude": -80.63,
      "name": "O.A. Holzer Student Health Center",
      "number": 266,
      "state": "FL",
      "street": "2976 Country Club Road",
      "zip": "32901",
      "revision": 12988
    },
    {
      "city": "MELBOURNE",
      "code": "630OBS",
      "description": "Observatory",
      "latitude": 28.07,
      "longitude": -80.67,
      "name": "Observatory",
      "number": 630,
      "state": "FL",
      "street": "3218 Engineering Street",
      "zip": "32901",
      "revision": 12988
    },
    {
      "city": "MELBOURNE",
      "code": "544BUS",
      "description": "Office of Information Technology",
      "latitude": 28.06,
      "longitude": -80.62,
      "name": "Office of Information Technology",
      "number": 544,
      "state": "FL",
      "street": "3126 Panther Place",
      "zip": "32901",
      "revision": 12988
    },
    {
      "city": "MELBOURNE",
      "code": "503OCB",
      "description": "Olin Chiller Building",
      "latitude": 28.06,
      "longitude": -80.62,
      "name": "Olin Chiller Building",
      "number": 503,
      "state": "FL",
      "street": "3118 Engineering Street",
      "zip": "32901",
      "revision": 12988
    },
    {
      "city": "ORLANDO",
      "code": "914WBC",
      "description": "Orlando - WBC",
      "latitude": 28.54,
      "longitude": -81.38,
      "name": "Orlando - WBC",
      "number": 914,
      "state": "FL",
      "street": "101 South Garland Avenue, Suite 108",
      "zip": "32801",
      "revision": 12988
    },
    {
      "city": "MELBOURNE BEACH",
      "code": "928ORT",
      "description": "Ortega Visitor Residence",
      "latitude": 28.04,
      "longitude": -80.54,
      "name": "Ortega Visitor Residence",
      "number": 928,
      "state": "FL",
      "street": "3037 South Highway A1A Unit 4C",
      "zip": "32951",
      "revision": 12988
    },
    {
      "city": "MELBOURNE",
      "code": "511POL",
      "description": "Panther Aquatics Center",
      "latitude": 28.08,
      "longitude": -80.61,
      "name": "Panther Aquatics Center",
      "number": 511,
      "state": "FL",
      "street": "3019 Panther Place",
      "zip": "32901",
      "revision": 12988
    },
    {
      "city": "PALM BAY",
      "code": "982PBA",
      "description": "Panther Bay - Building A",
      "latitude": 28.04,
      "longitude": -80.62,
      "name": "Panther Bay - Building A",
      "number": 982,
      "state": "FL",
      "street": "1550 Northeast Skippers Way",
      "zip": "32905",
      "revision": 12988
    },
    {
      "city": "PALM BAY",
      "code": "983PBA",
      "description": "Panther Bay - Building B",
      "latitude": 28.04,
      "longitude": -80.62,
      "name": "Panther Bay - Building B",
      "number": 983,
      "state": "FL",
      "street": "1560 Northeast Skippers Way",
      "zip": "32905",
      "revision": 12988
    },
    {
      "city": "PALM BAY",
      "code": "984PBA",
      "description": "Panther Bay - Building C",
      "latitude": 28.04,
      "longitude": -80.62,
      "name": "Panther Bay - Building C",
      "number": 984,
      "state": "FL",
      "street": "1890 Northeast Nautical Way",
      "zip": "32905",
      "revision": 12988
    },
    {
      "city": "PALM BAY",
      "code": "985PBA",
      "description": "Panther Bay - Building D",
      "latitude": 28.04,
      "longitude": -80.62,
      "name": "Panther Bay - Building D",
      "number": 985,
      "state": "FL",
      "street": "1800 Northeast Nautical Way",
      "zip": "32905",
      "revision": 12988
    },
    {
      "city": "PALM BAY",
      "code": "986PBA",
      "description": "Panther Bay - Building E",
      "latitude": 28.04,
      "longitude": -80.62,
      "name": "Panther Bay - Building E",
      "number": 986,
      "state": "FL",
      "street": "1660 Northeast Skippers Way",
      "zip": "32905",
      "revision": 12988
    },
    {
      "city": "PALM BAY",
      "code": "981PBA",
      "description": "Panther Bay - Clubhouse",
      "latitude": 28.04,
      "longitude": -80.62,
      "name": "Panther Bay - Clubhouse",
      "number": 981,
      "state": "FL",
      "street": "1540 Northeast Skippers Way",
      "zip": "32905",
      "revision": 12988
    },
    {
      "city": "PALM BAY",
      "code": "987SHD",
      "description": "Panther Bay - Shed",
      "latitude": 0,
      "longitude": 0,
      "name": "Panther Bay - Shed",
      "number": 987,
      "state": "FL",
      "street": "1660 Northeast Skippers Way",
      "zip": "32905",
      "revision": 12988
    },
    {
      "city": "MELBOURNE",
      "code": "520CAF",
      "description": "Panther Dining Hall",
      "latitude": 28.06,
      "longitude": -80.62,
      "name": "Panther Dining Hall",
      "number": 520,
      "state": "FL",
      "street": "3113 Panther Place",
      "zip": "32901",
      "revision": 12988
    },
    {
      "city": "MELBOURNE",
      "code": "413PAN",
      "description": "Panthereum",
      "latitude": 28.07,
      "longitude": -80.62,
      "name": "Panthereum",
      "number": 413,
      "state": "FL",
      "street": "162 Florida Tech Drive",
      "zip": "32901",
      "revision": 12988
    },
    {
      "city": "SATELLITE BEACH",
      "code": "964PAB",
      "description": "Patrick Air Force Base - Building 998",
      "latitude": 0,
      "longitude": 0,
      "name": "Patrick Air Force Base - Building 998",
      "number": 964,
      "state": "FL",
      "street": "1020 Central Ave Bldg 998 Suite C2",
      "zip": "32925",
      "revision": 12988
    },
    {
      "city": "PATUXENT RIVER",
      "code": "939EXS",
      "description": "Patuxent - Building 1489",
      "latitude": 38.27,
      "longitude": -76.45,
      "name": "Patuxent - Building 1489",
      "number": 939,
      "state": "MD",
      "street": "Patuxent River AFB",
      "zip": "20653",
      "revision": 12988
    },
    {
      "city": "LEXINGTON PARK",
      "code": "969EXS",
      "description": "Patuxent River",
      "latitude": 0,
      "longitude": 0,
      "name": "Patuxent River",
      "number": 969,
      "state": "MD",
      "street": "21803 A Three Notch Road",
      "zip": "",
      "revision": 12988
    },
    {
      "city": "PORT CANAVERAL",
      "code": "966PCW",
      "description": "Port Canaveral CCBC Workshop",
      "latitude": 0,
      "longitude": 0,
      "name": "Port Canaveral CCBC Workshop",
      "number": 966,
      "state": "FL",
      "street": "790 Mullet Drive, Unit A-47",
      "zip": "32920",
      "revision": 12988
    },
    {
      "city": "MELBOURNE",
      "code": "263PSY",
      "description": "Psychology Research",
      "latitude": 28.06,
      "longitude": -80.63,
      "name": "Psychology Research",
      "number": 263,
      "state": "FL",
      "street": "3106 Country Club Road",
      "zip": "32901",
      "revision": 12988
    },
    {
      "city": "MELBOURNE",
      "code": "408WRK",
      "description": "R.A. Work Administrative",
      "latitude": 28.07,
      "longitude": -80.62,
      "name": "R.A. Work Administrative",
      "number": 408,
      "state": "FL",
      "street": "2925 Country Club Road",
      "zip": "32901",
      "revision": 12988
    },
    {
      "city": "MELBOURNE",
      "code": "020CVC",
      "description": "Ramon Hall - Bldg \"C\"",
      "latitude": 28.07,
      "longitude": -80.62,
      "name": "Ramon Hall - Bldg \"C\"",
      "number": 20,
      "state": "FL",
      "street": "20 Babbling Brook Place",
      "zip": "32901",
      "revision": 12988
    },
    {
      "city": "REDSTONE",
      "code": "945EXS",
      "description": "Redstone Arsenal Building 3495",
      "latitude": 34.71,
      "longitude": -86.67,
      "name": "Redstone Arsenal Building 3495",
      "number": 945,
      "state": "AL",
      "street": "Toftoy Hall Patterson Road. Building 3495 Rm 105A",
      "zip": "35898",
      "revision": 12988
    },
    {
      "city": "HUNTSVILLE",
      "code": "970EXS",
      "description": "Redstone Bldg 7",
      "latitude": 0,
      "longitude": 0,
      "name": "Redstone Bldg 7",
      "number": 970,
      "state": "AL",
      "street": "Progress Center 7, Suite 720 6767 Old Madison Pike",
      "zip": "35806-4503",
      "revision": 12988
    },
    {
      "city": "PALM BAY",
      "code": "972RIV",
      "description": "River's Edge - Building \"B\"",
      "latitude": 28.03,
      "longitude": -80.58,
      "name": "River's Edge - Building \"B\"",
      "number": 972,
      "state": "FL",
      "street": "4400 North East Dixie Hwy",
      "zip": "32905",
      "revision": 12988
    },
    {
      "city": "PALM BAY",
      "code": "971RIV",
      "description": "River's Edge Main - Building A",
      "latitude": 28.03,
      "longitude": -80.58,
      "name": "River's Edge Main - Building A",
      "number": 971,
      "state": "FL",
      "street": "4400 North East Dixie Hwy",
      "zip": "32905",
      "revision": 12988
    },
    {
      "city": "PALM BAY",
      "code": "973RIV",
      "description": "River's Edge Pump House - Building \"C\"",
      "latitude": 28.03,
      "longitude": -80.58,
      "name": "River's Edge Pump House - Building \"C\"",
      "number": 973,
      "state": "FL",
      "street": "4400 North East Dixie Hwy",
      "zip": "32905",
      "revision": 12988
    },
    {
      "city": "ROANOKE",
      "code": "005EXS",
      "description": "Roanoke Higher Education Center",
      "latitude": 0,
      "longitude": 0,
      "name": "Roanoke Higher Education Center",
      "number": 5,
      "state": "VA",
      "street": "108 North Jefferson Street, Office 116",
      "zip": "24016",
      "revision": 12988
    },
    {
      "city": "ROANOKE",
      "code": "006EXS",
      "description": "Roanoke Higher Education Center",
      "latitude": 0,
      "longitude": 0,
      "name": "Roanoke Higher Education Center",
      "number": 6,
      "state": "VA",
      "street": "108 North Jefferson Street, Office 116",
      "zip": "24016",
      "revision": 12988
    },
    {
      "city": "MELBOURNE",
      "code": "118RBT",
      "description": "Roberts Hall Dorm",
      "latitude": 28.07,
      "longitude": -80.62,
      "name": "Roberts Hall Dorm",
      "number": 118,
      "state": "FL",
      "street": "2625 Country Club Road",
      "zip": "32901",
      "revision": 12988
    },
    {
      "city": "MELBOURNE",
      "code": "419CSB",
      "description": "Rotunda",
      "latitude": 0,
      "longitude": 0,
      "name": "Rotunda",
      "number": 419,
      "state": "FL",
      "street": "130 W. University Blvd.",
      "zip": "",
      "revision": 12988
    },
    {
      "city": "MELBOURNE",
      "code": "429FNK",
      "description": "Ruth Funk Center For Textile Arts",
      "latitude": 28.07,
      "longitude": -80.62,
      "name": "Ruth Funk Center For Textile Arts",
      "number": 429,
      "state": "FL",
      "street": "135 Florida Tech Drive",
      "zip": "32901",
      "revision": 12988
    },
    {
      "city": "MELBOURNE",
      "code": "545AUT",
      "description": "Scott Center for Autism Treatment and Research",
      "latitude": 28.06,
      "longitude": -80.62,
      "name": "Scott Center for Autism Treatment and Research",
      "number": 545,
      "state": "FL",
      "street": "3251 Engineering Street",
      "zip": "32901",
      "revision": 12988
    },
    {
      "city": "MELBOURNE BEACH",
      "code": "915SEB",
      "description": "Sebastian Shed",
      "latitude": 27.87,
      "longitude": -80.45,
      "name": "Sebastian Shed",
      "number": 915,
      "state": "FL",
      "street": "9700 South A1A Sebastian Inlet Park",
      "zip": "32951",
      "revision": 12988
    },
    {
      "city": "MELBOURNE",
      "code": "114SHA",
      "description": "Shaw Hall Dorm",
      "latitude": 28.07,
      "longitude": -80.62,
      "name": "Shaw Hall Dorm",
      "number": 114,
      "state": "FL",
      "street": "2785 Country Club Road",
      "zip": "32901",
      "revision": 12988
    },
    {
      "city": "MELBOURNE",
      "code": "439SHP",
      "description": "Shephard Building",
      "latitude": 28.07,
      "longitude": -80.62,
      "name": "Shephard Building",
      "number": 439,
      "state": "FL",
      "street": "2939 Science Circle",
      "zip": "32901",
      "revision": 12988
    },
    {
      "city": "MELBOURNE",
      "code": "619SOL",
      "description": "Solar Golf Cart Parking Structure",
      "latitude": 28.06,
      "longitude": -80.63,
      "name": "Solar Golf Cart Parking Structure",
      "number": 619,
      "state": "FL",
      "street": "3282 Psychology Place",
      "zip": "32901",
      "revision": 12988
    },
    {
      "city": "MELBOURNE",
      "code": "516PRK",
      "description": "South Campus Parking Structure",
      "latitude": 28.06,
      "longitude": -80.62,
      "name": "South Campus Parking Structure",
      "number": 516,
      "state": "FL",
      "street": "3115 Panther Place",
      "zip": "32901",
      "revision": 12988
    },
    {
      "city": "MELBOURNE",
      "code": "431BRG",
      "description": "South Covered Bridge",
      "latitude": 28.07,
      "longitude": -80.62,
      "name": "South Covered Bridge",
      "number": 431,
      "state": "FL",
      "street": "2907 Science Circle",
      "zip": "32901",
      "revision": 12988
    },
    {
      "city": "MELBOURNE",
      "code": "375SGA",
      "description": "Southgate Apartment \"A\"",
      "latitude": 28.06,
      "longitude": -80.62,
      "name": "Southgate Apartment \"A\"",
      "number": 375,
      "state": "FL",
      "street": "50 Southgate Boulevard",
      "zip": "32901",
      "revision": 12988
    },
    {
      "city": "MELBOURNE",
      "code": "376SGB",
      "description": "Southgate Apartment \"B\"",
      "latitude": 28.07,
      "longitude": -80.62,
      "name": "Southgate Apartment \"B\"",
      "number": 376,
      "state": "FL",
      "street": "57 Southgate Boulevard",
      "zip": "32901",
      "revision": 12988
    },
    {
      "city": "MELBOURNE",
      "code": "377SGC",
      "description": "Southgate Apartment \"C\"",
      "latitude": 28.07,
      "longitude": -80.62,
      "name": "Southgate Apartment \"C\"",
      "number": 377,
      "state": "FL",
      "street": "2810 Albemarle Street",
      "zip": "32901",
      "revision": 12988
    },
    {
      "city": "MELBOURNE",
      "code": "378SGD",
      "description": "Southgate Apartment \"D\"",
      "latitude": 28.07,
      "longitude": -80.62,
      "name": "Southgate Apartment \"D\"",
      "number": 378,
      "state": "FL",
      "street": "2826 Albemarle Street",
      "zip": "32901",
      "revision": 12988
    },
    {
      "city": "MELBOURNE",
      "code": "379SGE",
      "description": "Southgate Apartment \"E\"",
      "latitude": 28.07,
      "longitude": -80.62,
      "name": "Southgate Apartment \"E\"",
      "number": 379,
      "state": "FL",
      "street": "47 Southgate Boulevard",
      "zip": "32901",
      "revision": 12988
    },
    {
      "city": "MELBOURNE",
      "code": "380SGH",
      "description": "Southgate Apartment \"H\"",
      "latitude": 28.07,
      "longitude": -80.62,
      "name": "Southgate Apartment \"H\"",
      "number": 380,
      "state": "FL",
      "street": "2846 Albemarle Street",
      "zip": "32901",
      "revision": 12988
    },
    {
      "city": "MELBOURNE",
      "code": "383SGK",
      "description": "Southgate Apartment \"K\"",
      "latitude": 28.07,
      "longitude": -80.62,
      "name": "Southgate Apartment \"K\"",
      "number": 383,
      "state": "FL",
      "street": "2856 Albemarle Street",
      "zip": "32901",
      "revision": 12988
    },
    {
      "city": "MELBOURNE",
      "code": "384SGL",
      "description": "Southgate Apartment \"L\"",
      "latitude": 28.07,
      "longitude": -80.62,
      "name": "Southgate Apartment \"L\"",
      "number": 384,
      "state": "FL",
      "street": "2876 Albemarle Street",
      "zip": "32901",
      "revision": 12988
    },
    {
      "city": "MELBOURNE",
      "code": "385SGM",
      "description": "Southgate Apartment \"M\"",
      "latitude": 28.07,
      "longitude": -80.62,
      "name": "Southgate Apartment \"M\"",
      "number": 385,
      "state": "FL",
      "street": "2866 Albemarle Street",
      "zip": "32901",
      "revision": 12988
    },
    {
      "city": "MELBOURNE",
      "code": "382POL",
      "description": "Southgate Pool Building",
      "latitude": 28.07,
      "longitude": -80.62,
      "name": "Southgate Pool Building",
      "number": 382,
      "state": "FL",
      "street": "2836 Albemarle Street",
      "zip": "32901",
      "revision": 12988
    },
    {
      "city": "KSC",
      "code": "946EXS",
      "description": "Spaceport - Kennedy Space Center Grad Center",
      "latitude": 28.52,
      "longitude": -80.68,
      "name": "Spaceport - Kennedy Space Center Grad Center",
      "number": 946,
      "state": "FL",
      "street": "Kennedy Space Center,M6-306,Rm 2000",
      "zip": "32899",
      "revision": 12988
    },
    {
      "city": "PAFB",
      "code": "947EXS",
      "description": "Spaceport - Patrick Air Force Base",
      "latitude": 0,
      "longitude": 0,
      "name": "Spaceport - Patrick Air Force Base",
      "number": 947,
      "state": "FL",
      "street": "Patrick Air Force Base",
      "zip": "32925",
      "revision": 12988
    },
    {
      "city": "ROCKLEDGE",
      "code": "948SPR",
      "description": "Spaceport - Rockledge",
      "latitude": 0,
      "longitude": 0,
      "name": "Spaceport - Rockledge",
      "number": 948,
      "state": "FL",
      "street": "1290 Florida Avenue",
      "zip": "",
      "revision": 12988
    },
    {
      "city": "KSC",
      "code": "923EXS",
      "description": "Spaceport -KSC  Astronaut Memorial Foundation",
      "latitude": 0,
      "longitude": 0,
      "name": "Spaceport -KSC  Astronaut Memorial Foundation",
      "number": 923,
      "state": "FL",
      "street": "Building M6-306, Mail Code FIT, Room 3000",
      "zip": "32899",
      "revision": 12988
    },
    {
      "city": "BERKELEY",
      "code": "002STE",
      "description": "STE Consultants",
      "latitude": 0,
      "longitude": 0,
      "name": "STE Consultants",
      "number": 2,
      "state": "CA",
      "street": "2560 9th Street, Suite 220",
      "zip": "94710",
      "revision": 12988
    },
    {
      "city": "MELBOURNE",
      "code": "547WAV",
      "description": "Surf Mechanics Lab",
      "latitude": 28.08,
      "longitude": -80.61,
      "name": "Surf Mechanics Lab",
      "number": 547,
      "state": "FL",
      "street": "3120 Psychology Place",
      "zip": "32901",
      "revision": 12988
    },
    {
      "city": "MELBOURNE",
      "code": "409TEL",
      "description": "Telecommunications",
      "latitude": 28.08,
      "longitude": -80.62,
      "name": "Telecommunications",
      "number": 409,
      "state": "FL",
      "street": "161 Aeronautics Street",
      "zip": "32901",
      "revision": 12988
    },
    {
      "city": "MELBOURNE",
      "code": "140TEN",
      "description": "Tennis Court Building",
      "latitude": 28.07,
      "longitude": -80.62,
      "name": "Tennis Court Building",
      "number": 140,
      "state": "FL",
      "street": "2675 Country Club Road",
      "zip": "32901",
      "revision": 12988
    },
    {
      "city": "THOUSAND OAKS",
      "code": "917ARD",
      "description": "The Center for Autism and Related Disorders (CARD)",
      "latitude": 0,
      "longitude": 0,
      "name": "The Center for Autism and Related Disorders (CARD)",
      "number": 917,
      "state": "CA",
      "street": "325 East Hillcrest Drive, Suite 140",
      "zip": "91360",
      "revision": 12988
    },
    {
      "city": "WOODLAND HILLS",
      "code": "005ARD",
      "description": "The Center for Autism and Related Disorders (CARD)",
      "latitude": 0,
      "longitude": 0,
      "name": "The Center for Autism and Related Disorders (CARD)",
      "number": 5,
      "state": "CA",
      "street": "21600 Oxnard Street",
      "zip": "91367",
      "revision": 12988
    },
    {
      "city": "MELBOURNE",
      "code": "994BLR",
      "description": "The Emil Buehler Center for Aviation Training",
      "latitude": 28.1,
      "longitude": -80.64,
      "name": "The Emil Buehler Center for Aviation Training",
      "number": 994,
      "state": "FL",
      "street": "801 Harry Goode Way",
      "zip": "32901",
      "revision": 12988
    },
    {
      "city": "MELBOURNE",
      "code": "995HGR",
      "description": "The Emil Buehler Center Hangar",
      "latitude": 28.1,
      "longitude": -80.64,
      "name": "The Emil Buehler Center Hangar",
      "number": 995,
      "state": "FL",
      "street": "813 Harry Goode Way",
      "zip": "32901",
      "revision": 12988
    },
    {
      "city": "RICHMOND",
      "code": "912FSA",
      "description": "The Faison School for Autism",
      "latitude": 37.58,
      "longitude": -77.5,
      "name": "The Faison School for Autism",
      "number": 912,
      "state": "VA",
      "street": "1701 Byrd Avenue",
      "zip": "23230",
      "revision": 12988
    },
    {
      "city": "PALM BAY",
      "code": "960ISL",
      "description": "The Florida Tech Research and Development Ctr",
      "latitude": 28.04,
      "longitude": -80.6,
      "name": "The Florida Tech Research and Development Ctr",
      "number": 960,
      "state": "FL",
      "street": "2495 Palm Bay Road Northeast",
      "zip": "32905",
      "revision": 12988
    },
    {
      "city": "MELBOURNE",
      "code": "423GAZ",
      "description": "The Negroni-Hendrick Gazebo",
      "latitude": 28.07,
      "longitude": -80.62,
      "name": "The Negroni-Hendrick Gazebo",
      "number": 423,
      "state": "FL",
      "street": "150 Florida Tech Drive",
      "zip": "32901",
      "revision": 12988
    },
    {
      "city": "MODESTO",
      "code": "001TPC",
      "description": "Therapeutic Pathways\/Kendall Centers",
      "latitude": 0,
      "longitude": 0,
      "name": "Therapeutic Pathways\/Kendall Centers",
      "number": 1,
      "state": "CA",
      "street": "1115 14th Street",
      "zip": "95354",
      "revision": 12988
    },
    {
      "city": "MELBOURNE",
      "code": "631BAT",
      "description": "Tim Wakefield Batting Facility",
      "latitude": 28.06,
      "longitude": -80.62,
      "name": "Tim Wakefield Batting Facility",
      "number": 631,
      "state": "FL",
      "street": "3343 Psychology Place",
      "zip": "32901",
      "revision": 12988
    },
    {
      "city": "MELBOURNE",
      "code": "922TRA",
      "description": "Transportation Storage",
      "latitude": 28.09,
      "longitude": -80.63,
      "name": "Transportation Storage",
      "number": 922,
      "state": "FL",
      "street": "328 West Hibiscus Boulevard",
      "zip": "32901",
      "revision": 12988
    },
    {
      "city": "MELBOURNE",
      "code": "608UNI",
      "description": "Universal Waste Shed",
      "latitude": 28.06,
      "longitude": -80.63,
      "name": "Universal Waste Shed",
      "number": 608,
      "state": "FL",
      "street": "3284 Psychology Place",
      "zip": "32901",
      "revision": 12988
    },
    {
      "city": "MELBOURNE",
      "code": "512UNP",
      "description": "University Plaza at Florida Tech",
      "latitude": 28.06,
      "longitude": -80.62,
      "name": "University Plaza at Florida Tech",
      "number": 512,
      "state": "FL",
      "street": "3150 South Babcock Street",
      "zip": "32901",
      "revision": 12988
    },
    {
      "city": "MELBOURNE",
      "code": "607SHD",
      "description": "Utility Shed",
      "latitude": 0,
      "longitude": 0,
      "name": "Utility Shed",
      "number": 607,
      "state": "FL",
      "street": "3235 Psychology Place",
      "zip": "32901",
      "revision": 12988
    },
    {
      "city": "INDIAN RIVER SH",
      "code": "958VBL",
      "description": "Vero Beach - Cable Storage",
      "latitude": 27.68,
      "longitude": -80.36,
      "name": "Vero Beach - Cable Storage",
      "number": 958,
      "state": "FL",
      "street": "805 46th Place Vero Beach",
      "zip": "32963",
      "revision": 12988
    },
    {
      "city": "INDIAN RIVER SH",
      "code": "951VBL",
      "description": "Vero Beach - Caretaker",
      "latitude": 27.68,
      "longitude": -80.36,
      "name": "Vero Beach - Caretaker",
      "number": 951,
      "state": "FL",
      "street": "805 46th Place Vero Beach",
      "zip": "32963",
      "revision": 12988
    },
    {
      "city": "INDIAN RIVER SH",
      "code": "957VBL",
      "description": "Vero Beach - Concrete Tower",
      "latitude": 27.68,
      "longitude": -80.36,
      "name": "Vero Beach - Concrete Tower",
      "number": 957,
      "state": "FL",
      "street": "805 46th Place Vero Beach",
      "zip": "32963",
      "revision": 12988
    },
    {
      "city": "INDIAN RIVER SH",
      "code": "950VBL",
      "description": "Vero Beach - Main Lab",
      "latitude": 27.68,
      "longitude": -80.36,
      "name": "Vero Beach - Main Lab",
      "number": 950,
      "state": "FL",
      "street": "805 46th Place Vero Beach",
      "zip": "32963",
      "revision": 12988
    },
    {
      "city": "INDIAN RIVER SH",
      "code": "954VBL",
      "description": "Vero Beach - North Storage",
      "latitude": 27.68,
      "longitude": -80.36,
      "name": "Vero Beach - North Storage",
      "number": 954,
      "state": "FL",
      "street": "805 46th Place Vero Beach",
      "zip": "32963",
      "revision": 12988
    },
    {
      "city": "INDIAN RIVER SH",
      "code": "953VBL",
      "description": "Vero Beach - Shed",
      "latitude": 27.68,
      "longitude": -80.36,
      "name": "Vero Beach - Shed",
      "number": 953,
      "state": "FL",
      "street": "805 46th Place Vero Beach",
      "zip": "32963",
      "revision": 12988
    },
    {
      "city": "INDIAN RIVER SH",
      "code": "955VBL",
      "description": "Vero Beach - South Storage",
      "latitude": 0,
      "longitude": 0,
      "name": "Vero Beach - South Storage",
      "number": 955,
      "state": "FL",
      "street": "805 46th Place Vero Beach",
      "zip": "32963",
      "revision": 12988
    },
    {
      "city": "INDIAN RIVER SH",
      "code": "952VBL",
      "description": "Vero Beach - Wet Lab",
      "latitude": 27.68,
      "longitude": -80.36,
      "name": "Vero Beach - Wet Lab",
      "number": 952,
      "state": "FL",
      "street": "805 46th Place Vero Beach",
      "zip": "32963",
      "revision": 12988
    },
    {
      "city": "CHARLOTTESVILLE",
      "code": "913VIA",
      "description": "Virginia Institute of Autism",
      "latitude": 38.04,
      "longitude": -78.48,
      "name": "Virginia Institute of Autism",
      "number": 913,
      "state": "VA",
      "street": "1414 Westwood Road",
      "zip": "22903",
      "revision": 12988
    },
    {
      "city": "CHARLOTTESVILLE",
      "code": "004VIA",
      "description": "Virginia Institute of Autism",
      "latitude": 0,
      "longitude": 0,
      "name": "Virginia Institute of Autism",
      "number": 4,
      "state": "VA",
      "street": "P.O. Box 6127",
      "zip": "22906",
      "revision": 12988
    },
    {
      "city": "",
      "code": "000VOB",
      "description": "Virtual Office Building",
      "latitude": 0,
      "longitude": 0,
      "name": "Virtual Office Building",
      "number": 0,
      "state": "",
      "street": "",
      "zip": "",
      "revision": 12988
    },
    {
      "city": "WHITEMAN AFB",
      "code": "007EXS",
      "description": "Whiteman AFB",
      "latitude": 0,
      "longitude": 0,
      "name": "Whiteman AFB",
      "number": 7,
      "state": "MO",
      "street": "511 Spirit Blvd., Ste. 236",
      "zip": "65305",
      "revision": 12988
    },
    {
      "city": "MELBOURNE",
      "code": "117WOD",
      "description": "Wood Hall Dorm",
      "latitude": 28.07,
      "longitude": -80.62,
      "name": "Wood Hall Dorm",
      "number": 117,
      "state": "FL",
      "street": "2705 Country Club Road",
      "zip": "32901",
      "revision": 12988
    },
    {
      "city": "MIAMI",
      "code": "949WEV",
      "description": "World Evolve",
      "latitude": 0,
      "longitude": 0,
      "name": "World Evolve",
      "number": 949,
      "state": "FL",
      "street": "11755 South West 90th Street, Suite 210",
      "zip": "33186",
      "revision": 12988
    },
    {
      "city": "MELBOURNE",
      "code": "100ZON",
      "description": "Zone 100 - Dorm Quad",
      "latitude": 0,
      "longitude": 0,
      "name": "Zone 100 - Dorm Quad",
      "number": 100,
      "state": "FL",
      "street": "",
      "zip": "",
      "revision": 12988
    },
    {
      "city": "MELBOURNE",
      "code": "200ZON",
      "description": "Zone 200-PL#10, Health Ctr, Brownlie, Alumni",
      "latitude": 0,
      "longitude": 0,
      "name": "Zone 200-PL#10, Health Ctr, Brownlie, Alumni",
      "number": 200,
      "state": "FL",
      "street": "",
      "zip": "",
      "revision": 12988
    },
    {
      "city": "MELBOURNE",
      "code": "300ZON",
      "description": "Zone 300 - Southgate",
      "latitude": 0,
      "longitude": 0,
      "name": "Zone 300 - Southgate",
      "number": 300,
      "state": "FL",
      "street": "",
      "zip": "",
      "revision": 12988
    },
    {
      "city": "MELBOURNE",
      "code": "400ZON",
      "description": "Zone 400 - Academic Quad, Crawford",
      "latitude": 0,
      "longitude": 0,
      "name": "Zone 400 - Academic Quad, Crawford",
      "number": 400,
      "state": "FL",
      "street": "",
      "zip": "",
      "revision": 12988
    },
    {
      "city": "MELBOURNE",
      "code": "500ZON",
      "description": "Zone 500 - Eng\/Clemente",
      "latitude": 0,
      "longitude": 0,
      "name": "Zone 500 - Eng\/Clemente",
      "number": 500,
      "state": "FL",
      "street": "150 West University Boulevard",
      "zip": "32901",
      "revision": 12988
    },
    {
      "city": "",
      "code": "600ZON",
      "description": "Zone 600 - Ministry\/Athletic Fields",
      "latitude": 0,
      "longitude": 0,
      "name": "Zone 600 - Ministry\/Athletic Fields",
      "number": 600,
      "state": "FL",
      "street": "",
      "zip": "",
      "revision": 12988
    },
    {
      "city": "",
      "code": "700ZON",
      "description": "Zone 700 - Harris Commons, East Babcock St",
      "latitude": 0,
      "longitude": 0,
      "name": "Zone 700 - Harris Commons, East Babcock St",
      "number": 700,
      "state": "FL",
      "street": "",
      "zip": "",
      "revision": 12988
    },
    {
      "city": "",
      "code": "900ZON",
      "description": "Zone 900 - Off Campus",
      "latitude": 0,
      "longitude": 0,
      "name": "Zone 900 - Off Campus",
      "number": 900,
      "state": "FL",
      "street": "",
      "zip": "",
      "revision": 12988
    }
  ],
  "total": 233
}